places = [{"name":"California","lat":37.63677,"long":-120.164962,"description":"accounts for 13.2% of total yoga and pilates establishments in the U.S.","":null,"":null,"":null},
{"name":"New York","lat":40.71444,"long":-73.952125,"description":"accounts for 9.5% total yoga and pilates establishments in the U.S.","":null,"":null,"":null},
{"name":"Florida","lat":28.359171,"long":-81.564055,"description":"accounts for 7.6% total yoga and pilates establishments in the U.S.","":null,"":null,"":null},
{"name":"Texas","lat":31.200849,"long":-99.089451,"description":"accounts for 4.9% total yoga and pilates establishments in the U.S.","":null,"":null,"":null},
{"name":"Washington","lat":47.144732,"long":-120.775928,"description":"accounts for 4.8% total yoga and pilates establishments in the U.S.","":null,"":null,"":null},
{"name":"Colorado","lat":39.001471,"long":-106.342385,"description":"accounts for 4.1% total yoga and pilates establishments in the U.S.","":null,"":null,"":null},
{"name":"Illinois","lat":40.164374,"long":-88.995668,"description":"accounts for 3.8% total yoga and pilates establishments in the U.S.","":null,"":null,"":null},
{"name":"Pennsylvania","lat":40.806082,"long":-77.899112,"description":"accounts for 3.2% total yoga and pilates establishments in the U.S.","":null,"":null,"":null},
{"name":"Massachusetts","lat":42.355922,"long":-72.125278,"description":"accounts for 3.1% total yoga and pilates establishments in the U.S.","":null,"":null,"":null},
{"name":"North Carolina","lat":35.409785,"long":-79.974902,"description":"accounts for 2.7% total yoga and pilates establishments in the U.S.","":null,"":null,"":null},
{"name":"New Jersey","lat":39.939896,"long":-74.687906,"description":"accounts for 2.6% total yoga and pilates establishments in the U.S.","":null,"":null,"":null},
{"name":"Montana","lat":46.813481,"long":-109.128247,"description":"accounts for 0.4% total yoga and pilates establishments in the U.S.","":null,"":null,"":null},
{"name":"Arizona","lat":33.613868,"long":-112.240054,"description":"accounts for 2.5% total yoga and pilates establishments in the U.S.","":null,"":null,"":null},
{"name":"Oregon","lat":43.866992,"long":-120.317828,"description":"accounts for 1.9% total yoga and pilates establishments in the U.S.","":null,"":null,"":null},
{"name":"Maryland","lat":39.345782,"long":-77.133706,"description":"accounts for 1.9% total yoga and pilates establishments in the U.S.","":null,"":null,"":null},
{"name":"Michigan","lat":43.758753,"long":-84.848045,"description":"accounts for 1.9% total yoga and pilates establishments in the U.S.","":null,"":null,"":null},
{"name":"Georgia","lat":33.86695,"long":-84.452141,"description":"accounts for 1.7% total yoga and pilates establishments in the U.S.","":null,"":null,"":null},
{"name":"Ohio","lat":40.063542,"long":-83.248275,"description":"accounts for 1.7% total yoga and pilates establishments in the U.S.","":null,"":null,"":null},
{"name":"Utah","lat":40.816672,"long":-111.590489,"description":"accounts for 1.6% total yoga and pilates establishments in the U.S.","":null,"":null,"":null},
{"name":"Wisconsin","lat":44.733944,"long":-89.662292,"description":"accounts for 1.6% total yoga and pilates establishments in the U.S.","":null,"":null,"":null},
{"name":"Vermont","lat":44.230811,"long":-72.621473,"description":"accounts for 0.7% total yoga and pilates establishments in the U.S.","":null,"":null,"":null},
{"name":"New Hampshire","lat":43.756588,"long":-71.526677,"description":"accounts for 0.7% total yoga and pilates establishments in the U.S.","":null,"":null,"":null},
{"name":"Rhode Island","lat":41.840598,"long":-71.547822,"description":"accounts for 0.4% total yoga and pilates establishments in the U.S.","":null,"":null,"":null},
{"name":"Connecticut","lat":41.597114,"long":-72.825459,"description":"accounts for 0.5% total yoga and pilates establishments in the U.S.","":null,"":null,"":null},
{"name":"Washington D.C.","lat":38.907884,"long":-77.037215,"description":"accounts for 0.7% total yoga and pilates establishments in the U.S.","":null,"":null,"":null},
{"name":"Louisiana","lat":30.199788,"long":-92.029308,"description":"accounts for 1.0% total yoga and pilates establishments in the U.S.","":null,"":null,"":null},
{"name":"Arkansas","lat":34.762747,"long":-92.537949,"description":"accounts for 0.3% total yoga and pilates establishments in the U.S.","":null,"":null,"":null},
{"name":"Mississippi","lat":32.345123,"long":-90.419821,"description":"accounts for 0.2% total yoga and pilates establishments in the U.S.","":null,"":null,"":null},
{"name":"Alabama","lat":32.919295,"long":-86.84821,"description":"accounts for 0.6% total yoga and pilates establishments in the U.S.","":null,"":null,"":null},
{"name":"Tennessee","lat":36.318412,"long":-86.805861,"description":"accounts for 1.1% total yoga and pilates establishments in the U.S.","":null,"":null,"":null},
{"name":"Missouri","lat":38.404723,"long":-92.697702,"description":"accounts for 1.4% total yoga and pilates establishments in the U.S.","":null,"":null,"":null},
{"name":"Indiana","lat":39.891349,"long":-86.380629,"description":"accounts for 1.4% total yoga and pilates establishments in the U.S.","":null,"":null,"":null},
{"name":"Virginia","lat":37.497493,"long":-78.216332,"description":"accounts for 3.1% total yoga and pilates establishments in the U.S.","":null,"":null,"":null},
{"name":"West Virginia","lat":38.469646,"long":-80.906059,"description":"accounts for 0.2% total yoga and pilates establishments in the U.S.","":null,"":null,"":null},
{"name":"Iowa","lat":41.683469,"long":-93.474122,"description":"accounts for 0.5% total yoga and pilates establishments in the U.S.","":null,"":null,"":null},
{"name":"South Carolina","lat":34.030291,"long":-80.781847,"description":"accounts for 0.9% total yoga and pilates establishments in the U.S.","":null,"":null,"":null},
{"name":"Oklahoma","lat":35.630162,"long":-98.019062,"description":"accounts for 0.9% total yoga and pilates establishments in the U.S.","":null,"":null,"":null},
{"name":"Kansas","lat":37.887034,"long":-97.548924,"description":"accounts for 0.6% total yoga and pilates establishments in the U.S.","":null,"":null,"":null},
{"name":"Nebraska","lat":41.529163,"long":-99.568169,"description":"accounts for 0.3% total yoga and pilates establishments in the U.S.","":null,"":null,"":null},
{"name":"South Dakota","lat":44.716694,"long":-100.970439,"description":"accounts for 0.2% total yoga and pilates establishments in the U.S.","":null,"":null,"":null},
{"name":"North Dakota","lat":47.475082,"long":-100.245043,"description":"accounts for 0.0% total yoga and pilates establishments in the U.S.","":null,"":null,"":null},
{"name":"Wyoming","lat":43.029747,"long":-107.596112,"description":"accounts for 0.4% total yoga and pilates establishments in the U.S.","":null,"":null,"":null},
{"name":"Idaho","lat":43.463992,"long":-114.238557,"description":"accounts for 0.9% total yoga and pilates establishments in the U.S.","":null,"":null,"":null},
{"name":"New Mexico","lat":35.207198,"long":-106.498334,"description":"accounts for 0.7% total yoga and pilates establishments in the U.S.","":null,"":null,"":null},
{"name":"Minnesota","lat":46.091467,"long":-95.024696,"description":"accounts for 2.6% total yoga and pilates establishments in the U.S.","":null,"":null,"":null},
{"name":"Nevada","lat":39.848703,"long":-116.969244,"description":"accounts for 0.7% total yoga and pilates establishments in the U.S.","":null,"":null,"":null},
{"name":"Delaware","lat":38.987505,"long":-75.494823,"description":"accounts for 0.4% total yoga and pilates establishments in the U.S.","":null,"":null,"":null},
{"name":"Hawaii","lat":19.697486,"long":-155.76268,"description":"accounts for 0.6% total yoga and pilates establishments in the U.S.","":null,"":null,"":null},
{"name":"Alaska","lat":64.819159,"long":-151.147488,"description":"accounts for 0.4% total yoga and pilates establishments in the U.S.","":null,"":null,"":null},
{"name":"Kentucky","lat":37.420947,"long":-85.252083,"description":"accounts for 0.9% total yoga and pilates establishments in the U.S.","":null,"":null,"":null}]
